[
  {
    "name": "თბილისი მოლი (Tbilisi Mall)",
    "address": "დავით აღმაშენებლის ხეივანი, მე-16 კმ",
    "category": "სავაჭრო ცენტრი - დახურული (მიწისქვეშა)",
    "capacity": "2700",
    "status": "უფასო",
    "potential": "Stay: 2.5 საათი; commercial potential: უმაღლესი; recommended wash: მშრალი (ეკო) / სტანდარტული.",
    "importance": "High",
    "lat": 41.81653,
    "lng": 44.772709
  },
  {
    "name": "ისთ ფოინთი (East Point)",
    "address": "ალექსანდრე თვალჭრელიძის ქუჩა #2",
    "category": "სავაჭრო ცენტრი - ღია / ნაწილობრივ დახურული",
    "capacity": "2000+",
    "status": "უფასო",
    "potential": "Stay: 3 საათი; commercial potential: უმაღლესი; recommended wash: სტანდარტული (ღია სივრცე).",
    "importance": "High",
    "lat": 41.68967,
    "lng": 44.896561
  },
  {
    "name": "სითი მოლი საბურთალო",
    "address": "ვაჟა-ფშაველას გამზირი #70",
    "category": "სავაჭრო ცენტრი - მრავალდონიანი მიწისქვეშა",
    "capacity": "1500",
    "status": "ფასიანი",
    "potential": "Stay: 2 საათი; commercial potential: უმაღლესი; recommended wash: მშრალი (ეკო რეცხვა).",
    "importance": "High",
    "lat": 41.724383,
    "lng": 44.735658
  },
  {
    "name": "გალერია თბილისი",
    "address": "შოთა რუსთაველის გამზირი #2-4",
    "category": "სავაჭრო ცენტრი - დახურული (მიწისქვეშა)",
    "capacity": "300+",
    "status": "ფასიანი",
    "potential": "Stay: 1.5 საათი; commercial potential: უმაღლესი; recommended wash: მშრალი (ეკო რეცხვა).",
    "importance": "High",
    "lat": 41.694964,
    "lng": 44.799834
  },
  {
    "name": "ლისის ტბის პარკინგი (Gymnasia)",
    "address": "ლისის ტბის გარშემო გზა",
    "category": "სპორტი / რეკრეაცია - ორგანიზებული ღია",
    "capacity": "200+",
    "status": "ფასიანი (3 ლარი)",
    "potential": "Stay: 2 საათი; commercial potential: იდეალური ნიშა; recommended wash: ორთქლის / მშრალი რეცხვა.",
    "importance": "High",
    "lat": 41.7417,
    "lng": 44.7389
  },
  {
    "name": "ოლიმპიური აუზი (Aqua Pura)",
    "address": "გიორგი ბალანჩინის ქუჩა (საელჩოსთან)",
    "category": "სპორტული კომპლექსი - დიდი ღია ეზო",
    "capacity": "150+",
    "status": "უფასო",
    "potential": "Stay: 2 საათი; commercial potential: იდეალური ნიშა; recommended wash: სტანდარტული / ეკო რეცხვა.",
    "importance": "High",
    "lat": 41.7662,
    "lng": 44.7698
  },
  {
    "name": "Oktopus Fitness Club",
    "address": "ნინო რამიშვილის ქუჩა #33",
    "category": "ფიტნეს ცენტრი - ორგანიზებული ღია",
    "capacity": "100+",
    "status": "უფასო",
    "potential": "Stay: 1.5 საათი; commercial potential: პრემიუმ სეგმენტი; recommended wash: მშრალი (ეკო რეცხვა).",
    "importance": "High",
    "lat": 41.711863,
    "lng": 44.767138
  },
  {
    "name": "კუს ტბის პარკინგი",
    "address": "კუს ტბის ქუჩა (ზედა პლატო)",
    "category": "სპორტი / რეკრეაცია - ორგანიზებული ღია",
    "capacity": "100+",
    "status": "ფასიანი",
    "potential": "Stay: 2 საათი; commercial potential: მაღალშემოსავლიანი; recommended wash: ორთქლის / მშრალი რეცხვა.",
    "importance": "High",
    "lat": 41.7028,
    "lng": 44.7515
  },
  {
    "name": "GymBreeze (ნინოშვილის ქუჩა)",
    "address": "ეგნატე ნინოშვილის ქუჩა #64",
    "category": "სპორტი (პადელი) - იზოლირებული შიდა ეზო",
    "capacity": "50+",
    "status": "უფასო / ფასიანი ეზო",
    "potential": "Stay: 1.5 საათი; commercial potential: მაღალი აქტივობა; recommended wash: მშრალი / ეკო რეცხვა.",
    "importance": "High",
    "lat": 41.717672,
    "lng": 44.796783
  },
  {
    "name": "Fit Club by ARTHOUSE",
    "address": "ლადო გუდიაშვილის ქუჩა #18",
    "category": "ფიტნეს / აუზი - დახურული (მიწისქვეშა)",
    "capacity": "50+",
    "status": "ფასიანი",
    "potential": "Stay: 2 საათი; commercial potential: Luxury სეგმენტი; recommended wash: პრემიუმ მშრალი დეტეილინგი.",
    "importance": "High",
    "lat": 41.697087,
    "lng": 44.800111
  },
  {
    "name": "ოლიმპიური სასახლე",
    "address": "უნივერსიტეტის ქუჩა #15ა",
    "category": "სპორტული კომპლექსი - დაცული გარე ეზო",
    "capacity": "100+",
    "status": "ფასიანი",
    "potential": "Stay: 1.5 საათი; commercial potential: მაღალი; recommended wash: სტანდარტული / ეკო რეცხვა.",
    "importance": "High",
    "lat": 41.718045,
    "lng": 44.726769
  },
  {
    "name": "GYM13",
    "address": "ნიკიფორე ირბახის ქუჩა #17",
    "category": "ფიტნეს ცენტრი - საკუთარი ღია პარკინგი",
    "capacity": "80+",
    "status": "უფასო",
    "potential": "Stay: 1.5 საათი; commercial potential: მაღალი; recommended wash: სტანდარტული (გარე).",
    "importance": "High",
    "lat": 41.692904,
    "lng": 44.820569
  },
  {
    "name": "GOLD'S GYM",
    "address": "აკაკი ბელიაშვილის ქუჩა #1",
    "category": "ფიტნეს ცენტრი - საკუთარი ღია ეზო",
    "capacity": "70+",
    "status": "უფასო",
    "potential": "Stay: 1.5 საათი; commercial potential: მაღალი; recommended wash: სტანდარტული / ეკო რეცხვა.",
    "importance": "High",
    "lat": 41.754613,
    "lng": 44.777454
  },
  {
    "name": "Go Fitness",
    "address": "დავით გურამიშვილის გამზირი #15",
    "category": "ფიტნეს ცენტრი - მიწისზედა / მიწისქვეშა",
    "capacity": "70+",
    "status": "უფასო",
    "potential": "Stay: 1.5 საათი; commercial potential: მაღალი; recommended wash: მშრალი / ეკო რეცხვა.",
    "importance": "High",
    "lat": 41.756453,
    "lng": 44.78834
  },
  {
    "name": "ფაბრიკა (Fabrika)",
    "address": "ეგნატე ნინოშვილის ქუჩა #8",
    "category": "კულტურული სივრცე - შიდა ეზო / ქუჩა",
    "capacity": "60+",
    "status": "ფასიანი / უფასო",
    "potential": "Stay: 2 საათი; commercial potential: მაღალი; recommended wash: მშრალი (ეკო რეცხვა).",
    "importance": "High",
    "lat": 41.709559,
    "lng": 44.802776
  },
  {
    "name": "რიყის პარკის პარკინგი",
    "address": "მტკვრის მარცხენა სანაპირო",
    "category": "მუნიციპალური - დახურული (მიწისქვეშა)",
    "capacity": "350",
    "status": "ფასიანი",
    "potential": "Stay: 1.5 საათი; commercial potential: სტაბილური ნაკადი; recommended wash: მშრალი (ეკო რეცხვა).",
    "importance": "High",
    "lat": 41.6926,
    "lng": 44.8103
  },
  {
    "name": "თბილისი ცენტრალი",
    "address": "სადგურის მოედანი #2",
    "category": "სავაჭრო ცენტრი - დახურული მრავალდონიანი",
    "capacity": "250+",
    "status": "ფასიანი",
    "potential": "Stay: 1 საათი; commercial potential: სტაბილური ნაკადი; recommended wash: მშრალი (ეკო რეცხვა).",
    "importance": "Medium",
    "lat": 41.722578,
    "lng": 44.796442
  },
  {
    "name": "ორბელიანის მოედნის პარკინგი",
    "address": "ალექსანდრე პუშკინის ქუჩა",
    "category": "მუნიციპალური - მრავალდონიანი მიწისქვეშა",
    "capacity": "230+",
    "status": "ფასიანი",
    "potential": "Stay: 1 საათი; commercial potential: სტაბილური ნაკადი; recommended wash: მშრალი (ეკო რეცხვა).",
    "importance": "Medium",
    "lat": 41.694937,
    "lng": 44.802241
  },
  {
    "name": "ისანი მოლი / კარფური",
    "address": "ნავთლუღის ქუჩა #8ა",
    "category": "სავაჭრო ცენტრი - მიწისზედა / მიწისქვეშა",
    "capacity": "150+",
    "status": "უფასო (2 სთ)",
    "potential": "Stay: 50 წუთი; commercial potential: სწრაფი ბრუნვა; recommended wash: მშრალი / ეკო რეცხვა.",
    "importance": "Medium",
    "lat": 41.68301,
    "lng": 44.841121
  },
  {
    "name": "მთაწმინდის პარკის ავტოსადგომი",
    "address": "მთაწმინდის პლატო",
    "category": "რეკრეაცია - ღია მოედანი",
    "capacity": "150+",
    "status": "ფასიანი",
    "potential": "Stay: 3 საათი; commercial potential: სეზონური/შაბათ-კვირა; recommended wash: სტანდარტული (გარე).",
    "importance": "High",
    "lat": 41.6957,
    "lng": 44.7908
  },
  {
    "name": "დიდუბე პლაზა",
    "address": "აკაკი წერეთლის გამზირი #116",
    "category": "ბიზნეს ცენტრი - შიდა და გარე ეზო",
    "capacity": "150+",
    "status": "ფასიანი",
    "potential": "Stay: 2 საათი; commercial potential: კორპორატიული; recommended wash: მშრალი / ორთქლის რეცხვა.",
    "importance": "High",
    "lat": 41.73839,
    "lng": 44.780508
  },
  {
    "name": "აქსის თაუერსი (Axis Towers)",
    "address": "ილია ჭავჭავაძის გამზირი #37",
    "category": "ბიზნეს / მარკეტი - დახურული (მიწისქვეშა)",
    "capacity": "100+",
    "status": "ფასიანი",
    "potential": "Stay: 1 საათი; commercial potential: პრემიუმ კლიენტები; recommended wash: მშრალი (ეკო რეცხვა).",
    "importance": "High",
    "lat": 41.711801,
    "lng": 44.758379
  },
  {
    "name": "Padel Island EXPO Park",
    "address": "აკაკი წერეთლის გამზირი #118",
    "category": "სპორტი (პადელი) - ექსპო ჯორჯიას ღია ეზო",
    "capacity": "100+",
    "status": "ფასიანი",
    "potential": "Stay: 1.5 საათი; commercial potential: სტაბილური; recommended wash: სტანდარტული (გარე).",
    "importance": "High",
    "lat": 41.73973,
    "lng": 44.778088
  },
  {
    "name": "სითი მოლი გლდანი",
    "address": "ომარ ხიზანიშვილის ქუჩა #1",
    "category": "სავაჭრო ცენტრი - მიწისზედა / მიწისქვეშა",
    "capacity": "100+",
    "status": "ფასიანი",
    "potential": "Stay: 1 საათი; commercial potential: სტაბილური; recommended wash: მშრალი / ეკო რეცხვა.",
    "importance": "Medium",
    "lat": 41.791617,
    "lng": 44.81546
  },
  {
    "name": "ჰიპერმარკეტი დომინო",
    "address": "ალექსანდრე თვალჭრელიძის ქუჩა",
    "category": "სამშენებლო მარკეტი - დიდია ღია მოედანი",
    "capacity": "100+",
    "status": "უფასო",
    "potential": "Stay: 1 საათი; commercial potential: სტაბილური; recommended wash: სტანდარტული (გარე).",
    "importance": "Medium",
    "lat": 41.693128,
    "lng": 44.900812
  },
  {
    "name": "სასტუმრო რედისონ ბლუ ივერია",
    "address": "პირველი რესპუბლიკის მოედანი #1",
    "category": "სასტუმრო - დაცული ღია მოედანი",
    "capacity": "90",
    "status": "ფასიანი",
    "potential": "Stay: 2 საათი; commercial potential: მაღალბიუჯეტიანი; recommended wash: პრემიუმ მშრალი რეცხვა.",
    "importance": "High",
    "lat": 41.703922,
    "lng": 44.793569
  },
  {
    "name": "თბილისის საერთაშორისო აეროპორტი",
    "address": "AeroPort T'rasa",
    "category": "ტრანსპორტი - ღია მოედნები (3 ზონა)",
    "capacity": "1000+",
    "status": "ფასიანი",
    "potential": "Stay: 24+ საათი; commercial potential: საშუალო; recommended wash: ხანგრძლივი დეტეილინგი.",
    "importance": "High",
    "lat": 41.668546,
    "lng": 44.955934
  },
  {
    "name": "პეკინისა და მიცკევიჩის კვეთა",
    "address": "პეკინის გამზირი (მიწისქვეშა)",
    "category": "მუნიციპალური - ავტომატიზებული მიწისქვეშა",
    "capacity": "200",
    "status": "ფასიანი",
    "potential": "Stay: 45 წუთი; commercial potential: საშუალო; recommended wash: მშრალი (ეკო რეცხვა).",
    "importance": "Medium",
    "lat": 41.7251,
    "lng": 44.7727
  },
  {
    "name": "იუსტიციის სახლის პარკინგი",
    "address": "ზვიად გამსახურდიას სანაპირო #2",
    "category": "სახელმწიფო უწყება - ღია / მიწისქვეშა",
    "capacity": "200-მდე",
    "status": "ფასიანი",
    "potential": "Stay: 40 წუთი; commercial potential: დროში შეზღუდული; recommended wash: მშრალი (ეკო რეცხვა).",
    "importance": "Light",
    "lat": 41.7002,
    "lng": 44.8062
  },
  {
    "name": "ბაქსვუდის სპორტული დარბაზი",
    "address": "მარშალ გელოვანის გამზირი #1",
    "category": "სპორტი (კალათბურთი) - ღია ეზო",
    "capacity": "50+",
    "status": "უფასო",
    "potential": "Stay: 1.2 საათი; commercial potential: საშუალო; recommended wash: სტანდარტული (გარე).",
    "importance": "Medium",
    "lat": 41.743337,
    "lng": 44.769601
  },
  {
    "name": "ნიუტონის თავისუფალი სკოლა",
    "address": "ანა პოლიტკოვსკაიას ქუჩა #30",
    "category": "სპორტი (კალათბურთი) - გარე საპარკინგე ზოლი",
    "capacity": "50+",
    "status": "უფასო",
    "potential": "Stay: 1.2 საათი; commercial potential: საშუალო; recommended wash: სტანდარტული (გარე).",
    "importance": "Medium",
    "lat": 41.720067,
    "lng": 44.708038
  },
  {
    "name": "სასტუმრო მოქსი (Moxy Hotel)",
    "address": "ზაარბრიუკენის მოედანი",
    "category": "სასტუმრო - დახურული (მიწისქვეშა)",
    "capacity": "55",
    "status": "ფასიანი",
    "potential": "Stay: 2 საათი; commercial potential: მცირე ფართობი; recommended wash: მშრალი (ეკო რეცხვა).",
    "importance": "Light",
    "lat": 41.702714,
    "lng": 44.804505
  },
  {
    "name": "დინამოს აკადემია (კალათბურთი)",
    "address": "ნოდარ ახალკაცის ქუჩა #38/3",
    "category": "სპორტი (კალათბურთი) - დაცული შიდა ეზო",
    "capacity": "~35",
    "status": "უფასო",
    "potential": "Stay: 1.5 საათი; commercial potential: ლოკალური; recommended wash: მშრალი / ეკო რეცხვა.",
    "importance": "Light",
    "lat": 41.759663,
    "lng": 44.774852
  },
  {
    "name": "Padel Academy (ქავთარაძე)",
    "address": "პეტრე ქავთარაძის ქუჩა #26",
    "category": "სპორტი (პადელი) - მცირე შიდა ეზო",
    "capacity": "~20",
    "status": "უფასო",
    "potential": "Stay: 1.5 საათი; commercial potential: მცირე ფართობი; recommended wash: მშრალი (ეკო რეცხვა).",
    "importance": "Light",
    "lat": 41.721494,
    "lng": 44.732075
  },
  {
    "name": "ზაზა ფაჩულიას აკადემია",
    "address": "აკაკი წერეთლის გამზირი #105ა",
    "category": "სპორტი (კალათბურთი) - შეზღუდული შიდა ეზო",
    "capacity": "შეზღუდული",
    "status": "უფასო",
    "potential": "Stay: 1.5 საათი; commercial potential: ლოკალური; recommended wash: მშრალი (ეკო რეცხვა).",
    "importance": "Light",
    "lat": 41.742295,
    "lng": 44.780316
  }
]
